name,latitude,longitude,type,category,rating,ratings_count,description,image_urls,source,distance_to_user,distance_to_segment,predicted_relevant,prediction_probability,relevant
Temple of Tooth,9.7937885,80.2209773,temple,Cultural,4.8,0,"The Temple of the Sacred Tooth Relic is a Buddhist temple in Kandy, Sri Lanka. It is considered one of the most sacred places in the Buddhist world.","['https://cdn.pixabay.com/photo/2015/08/20/17/45/sri-lanka-897819_960_720.jpg', 'https://cdn.pixabay.com/photo/2014/03/06/20/31/temple-of-the-tooth-281135_640.jpg', 'https://cdn.pixabay.com/photo/2013/11/03/11/58/temple-204803_960_720.jpg', 'https://cdn.pixabay.com/photo/2017/03/01/05/50/sri-lanka-2107620_960_720.jpg']",database,320.748427437767,320.7481524892904,0,0.0,0
Colombo Lotus Tower,6.927173943255416,79.85832407144919,Tower,Cultural,4.8,0,"Adding a new experience to the Sri Lankan landscape, the tallest self-supported structure in South Asia and the tallest skyscraper in the country, the Lotus Tower is the ultimate culmination of ingenuity and innovation. Rising towards Colombo’s skyline the Nelum Kuluna is an iconic landmark that reflects the spirit of a nation. Her resilience and her strength.","['https://cdn.pixabay.com/photo/2022/07/11/08/44/tower-7314495_960_720.jpg', 'https://cdn.pixabay.com/photo/2022/07/11/08/44/tower-7314497_1280.jpg', 'https://images.unsplash.com/photo-1546656495-fc838de15e5c?q=80&w=1470&auto=format&fit=crop&ixlib=rb-4.1.0&ixid=M3wxMjA3fDB8MHxwaG90by1wYWdlfHx8fGVufDB8fHx8fA%3D%3D', 'https://images.unsplash.com/photo-1641482646821-4aa9e115bc1c?q=80&w=1470&auto=format&fit=crop&ixlib=rb-4.1.0&ixid=M3wxMjA3fDB8MHxwaG90by1wYWdlfHx8fGVufDB8fHx8fA%3D%3D']",database,100.62159383104817,100.62094865546001,0,0.08,0
Nuwara Eliya Mountains View point,6.983454699999999,80.7504763,attraction,tourist_attraction,4.3,47,"XQM2+95Q, Nuwara Eliya",[],google,3.274603629701232,3.274070233229195,0,0.2364477892339357,0
Dematamal Viharaya| දෙමටමල් විහාරය,6.7539904,81.2880131,attraction,tourist_attraction,4.8,525,B522,[],google,61.70631513980528,33.002915748838255,0,0.03,0
Tunnel NO 18/ Pattipola Tunnel [Up Country Line],6.8426174,80.83722120000002,attraction,tourist_attraction,4.8,21,"RRVP+2VX, Pattipola",[],google,15.119272466261934,6.445459572622715,0,0.05,0
Moon Plains,6.9523269,80.79640409999999,attraction,tourist_attraction,4.5,2683,"Ranhawadigama Road, Nuwara Eliya",[],google,3.133241604657683,0.7590796492658596,1,0.7454393858725911,1
Upper Diyaluma Waterfall,6.734827800000001,81.03244720000001,attraction,tourist_attraction,4.8,819,"Colombo - Batticaloa Highway, Uva-Gampaha",[],google,38.40291789674505,10.700395102213813,0,0.05,0
Diyawatanalla Waterfall,6.849332000000001,80.8589566,attraction,tourist_attraction,3.1,8,"RVX5+PHP, Gatalagamuwa - Alawathugoda Road, Alawathugoda",[],google,15.851886071846184,4.941365826257097,0,0.09,0
St. Francis Xavier's Church,6.9773709,80.7649881,attraction,tourist_attraction,4.7,195,"2016 Bandaranaike Mawatha, Nuwara Eliya",[],google,1.9149558237447515,1.9146434284739968,1,0.5961368387087723,1
Auslink Hotel Walapane Sri Lanka,7.095043299999999,80.86279139999999,attraction,tourist_attraction,3.9,248,"47 Walapane - Nildandahinna Road, Walapane",[],google,18.1563999577002,17.94050003617745,0,0.07554343211536574,0
Mallipotha Tank - මාලිප්පොත වැව,7.147922899999998,81.167884,attraction,tourist_attraction,3.8,26,"45X9+556, Kiriwandeniya Road, Rambukkana",[],google,48.66393178735286,36.913600966389026,0,0.04714524207011686,0
Porawagala Viewpoint,6.8301766,81.0127674,attraction,tourist_attraction,4.4,374,"Mahaulpatha, Galkanda, Bandarawela",[],google,30.544723086039507,1.7031916269447667,1,0.5594065934065934,1
Ravana's Cave,6.8644786,81.04864169999999,attraction,tourist_attraction,4.0,1565,"V27X+QFR, Ella",[],google,32.639131962028735,7.056053923164063,0,0.09940659340659341,0
Uva Halpewatte Tea Factory Tour,6.8892883,81.0345068,attraction,tourist_attraction,4.6,1531,"Uva Halpewatte Tea Factory, Badulla Road, Hela Halpe, Ella, Sri Lanka",[],google,30.332485532821092,8.131523611933122,0,0.05,0
Piduruthalagala Conservation Forest,7.0216667,80.7561111,attraction,tourist_attraction,4.6,1067,"2QC4+MC9, Nuwara Eliya",[],google,6.934858564884953,6.934569743746392,0,0.06613683870877232,0
Muthiyangana Raja Maha Vihara,6.9842184,81.0613561,attraction,tourist_attraction,4.7,3347,"X3M6+MGQ, Station Road, Badulla",[],google,32.34149294654858,16.181811762595547,0,0.09613683870877232,0
Devon Falls,6.951407700000001,80.6300174,attraction,tourist_attraction,4.6,909,"XJ2J+H26, Nawalapitiya - Dimbula Road",[],google,15.407688497850025,15.407049143473387,0,0.044399386971320585,0
Weli Oya Bridge,6.767487599999999,80.8468142,attraction,tourist_attraction,4.6,70,"QR8W+XPW, Walhaputenna",[],google,23.124800872319526,14.140268769174574,0,0.03,0
Cinnamon Nature Trails,6.929325,79.84968800000001,attraction,tourist_attraction,4.3,23,"WRHX+PVP, Colombo",[],google,101.56546433129168,101.56481867278092,0,0.05,0
Summerside Residence,7.248349600000001,79.84509779999999,attraction,tourist_attraction,4.3,331,"84 Station Road, Palangathure, Negombo",[],google,106.87596062688071,106.8752927162727,0,0.009369527145359019,0
Korathota Royal Temple,6.915038,80.0021349,attraction,tourist_attraction,4.7,1203,"W282+2V6, B174",[],google,84.83190214127919,84.83126125075448,0,0.02439938697132059,0
Sri Aanjaneyar Temple,6.8673147,79.8661651,attraction,hindu_temple,4.6,630,"112a Sri Saranankara Road, Dehiwala-Mount Lavinia",[],google,100.23259324785204,100.23196145025051,0,0.0,0
Sambodhi Pagoda Temple,6.9383932,79.8420285,attraction,tourist_attraction,4.6,403,"WRQR+9R2, Chaithya Road, Colombo",[],google,102.38005494271457,102.3794075202781,0,0.02,0
Christian Reformed Church of Sri Lanka,6.942084799999999,79.859072,attraction,tourist_attraction,4.1,86,"WVR5+RJP, Wolfendhal Lane, Colombo",[],google,100.48970555682547,100.48905752174586,0,0.07,0
Manelwatta Temple,6.944921099999998,79.9513614,attraction,tourist_attraction,4.6,1719,"WXW2+52M, Bollegala, Kalaniya,Sri Lanka",[],google,90.29847321915481,90.29782500388635,0,0.03613683870877232,0
Bellanwila Rajamaha Viharaya,6.8460686,79.8899933,attraction,tourist_attraction,4.8,8794,"Dehiwala Road, Boralesgamuwa",[],google,97.898433952133,97.89780832494938,0,0.0,0
St. Mary's Church,7.210452999999999,79.8372024,attraction,tourist_attraction,4.7,1281,"Main Street, No.100 Grand Street, Negombo",[],google,106.53623490699108,106.5355656460504,0,0.0,0
Dilra Tours (OPEN),7.1020365,79.9099821,attraction,tourist_attraction,4.6,29,"Orexcity shopping complex, Ja-Ela",[],google,96.12644124076432,96.12577329277316,0,0.007145242070116861,0
JourneyScapes Travel,6.857984699999999,79.8636106,attraction,tourist_attraction,4.6,52,"No 08 2nd Lane, Dehiwala-Mount Lavinia",[],google,100.62649742165183,100.62586786365641,0,0.0,0
Kotte Rajamaha Vihara,6.881008100000001,79.9047497,attraction,tourist_attraction,4.7,1606,"Mirihana South, Sri Jayawardenepura Kotte",[],google,95.84320067628512,95.84256644470045,0,0.0,0
Daffodils Beach Negombo,7.238267,79.8430534,attraction,tourist_attraction,4.2,25,"31, Judes Mawatha Off, Beach Road, Negombo",[],google,106.76279936543384,106.76213099175234,0,0.009369527145359019,0
Excel World Entertainment Park,6.922451499999999,79.8612151,attraction,tourist_attraction,3.9,8065,"338 T. B. Jayah Mawatha, Colombo",[],google,100.3240880687004,100.3234438606131,0,0.06,0
Galabedda Biso Pond ගලබැද්ද බිසෝ පොකුණ,6.91683,81.38750449999999,attraction,tourist_attraction,4.5,187,Colombo - Batticaloa Highway,[],google,68.41232107937293,44.17677393699648,0,0.055543432115365735,0
Āriapāla Mask Museum,6.241271800000001,80.0506997,attraction,museum,4.3,1059,"426 Main Street, Ambalangoda",[],google,112.69226633884972,112.69191774672652,0,0.0,0
Handagedara Resort & Spa,5.9460481,80.45324260000001,attraction,tourist_attraction,4.4,377,"81740 Harbour Road, Mirissa",[],google,118.10364923520237,114.4537816657139,0,0.0,0
Srī Vijayārāma Ancient Temple,6.245268599999999,80.0575088,attraction,tourist_attraction,4.7,161,"63W5+422, Dhirakkanda Buddhist Temple, Dhirakkanda Mawatha, Kaluwadumulla, Ambalangada., Ambalangoda",[],google,111.84703998389355,111.84669252637276,0,0.0,0
Mahamevnawa Buddhist Monastery - Galle | මහමෙව්නාව භාවනා අසපුව - ගාල්ල,6.041376999999999,80.2737836,attraction,tourist_attraction,4.7,215,"melegoda, Wanchawala",[],google,115.95857531159601,114.73900777994481,0,0.0,0
Hotel Hasara,6.0493841,80.2062607,attraction,tourist_attraction,3.8,1035,"1 Wakunugoda Road, ගාල්ල",[],google,118.90123336250278,118.23541074314402,0,0.0,0
Lunuganga,6.403383799999999,80.02187909999999,attraction,tourist_attraction,4.5,862,"Dedduwa, Bentota",[],google,103.21708636522634,103.21665864663038,0,0.0,0
Sinharaja Forest Reserve,6.406990800000001,80.46002659999999,attraction,tourist_attraction,4.6,2159,Sri Lanka,[],google,70.40784947633142,69.58414680919876,0,0.0,0
Hotel Nawathana,5.943861900000001,80.54575659999999,attraction,tourist_attraction,4.2,264,"No.15, Sri Dharmarama, Mawatha, Matara",[],google,115.7323383603525,109.7080584153665,0,0.0,0
The Long Beach Resort,5.990508000000001,80.31938199999999,attraction,tourist_attraction,3.8,1930,"The Long Beach Resort, මාතර පාර, කොග්ගල",[],google,118.78077176396778,116.98194700029981,0,0.0,0
YOGA REIKI MEDITATION,7.2995129,80.6484139,attraction,tourist_attraction,5.0,19,"142/5A Dharmashoka Mawatha, Kandy",[],google,39.966734610808444,39.96637061804815,0,0.10714524207011684,0
Rajanima Craft (Pvt) Ltd,7.284680200000001,80.6434498,attraction,tourist_attraction,4.0,55,"173 Rajapihilla Mawatha, Kandy",[],google,38.60956159221663,38.609182211610324,0,0.17407986464184297,0
Old Royal Palace,7.2947862,80.6410831,attraction,museum,4.5,148,"15 Raja Veediya, Kandy",[],google,39.752293709262695,39.75191656233821,0,0.17307146128049847,0
Angammedilla National Park,7.925445299999999,80.92077370000001,attraction,tourist_attraction,4.4,208,"WWGC+58C, Diyabeduma",[],google,108.56851028158032,108.5684565304109,0,0.0,0
Bowatenna Reservoir | බෝවතැන්න ජලාශය,7.671418199999998,80.6668997,attraction,tourist_attraction,4.6,20,"MMC8+HQ6, Arangala",[],google,79.83244427989608,79.83219812272321,0,0.09,0
Sigiri Jungle Resort,7.939288,80.740802,attraction,tourist_attraction,5.0,3,"WPQR+P87, Polonnaruwa, Mahasengama, Sigiriya, Sigiriya",[],google,108.86077962917608,108.86060524987286,0,0.0,0
Gimanhala Hotel,7.879958,80.650618,attraction,tourist_attraction,4.0,1288,"Jaffna - Kandy Highway, 754 Anuradhapura Road, Dambulla",[],google,103.05243329635705,103.05219627506507,0,0.01,0
Hotel Mahanuge,7.957742899999999,80.9966997,attraction,tourist_attraction,4.1,706,26th Mile Post,[],google,113.66709447985912,113.66708611472065,0,0.0,0
Nalanda Gedige,7.669748599999999,80.645856,attraction,hindu_temple,4.6,1571,"MJ9W+V8X, Gedige Road, Matale",[],google,80.0107331929186,80.01046906871225,0,0.08899159663865547,0
Martin Wickramasinghe Folk Museum,5.989937,80.328019,attraction,museum,4.6,1232,"Matara Road, Koggala",[],google,118.44247232700808,116.57325328812851,0,0.0,0
Hikkaduwa Lagoon Safari and Adventure kayaking,6.1033254,80.1268865,attraction,tourist_attraction,4.9,549,"Lahiru's Place, No 9 Dammissara Road, Dodanduwa",[],google,118.84943748380599,118.83067585601388,0,0.0,0
Dasa Beach View,5.9934074,80.3071104,attraction,tourist_attraction,4.1,19,"05 Matara Road, Habaraduwa",[],google,119.06313520601688,117.3723062517401,0,0.0,0
Parappudūva Island Temple,6.1115676,80.13834250000001,attraction,tourist_attraction,4.8,29,"446Q+J8G, Rathgama",[],google,117.3591695235724,117.33820224554195,0,0.0,0
SP Unawatuna Lodge Guest House,6.005395999999998,80.258941,attraction,cafe,4.5,4,"2745+5H8, Meepegewatta, Maharamba Road, Unawatuna",[],google,120.26144384940483,118.99292510288848,0,0.0,0
Rumassala South Beach,6.018462500000001,80.2354871,attraction,tourist_attraction,4.7,170,"269P+95Q, Unawatuna",[],google,120.22935598363489,119.1969632187576,0,0.0,0
Sithuvili Gallery,6.0257719,80.21882459999999,attraction,art_gallery,4.7,27,"60 Leyn Baan Street, Galle",[],google,120.44053622296893,119.56660453133877,0,0.0,0
BTR SL,6.0367169,80.2090398,attraction,tourist_attraction,4.9,59,"104/1/1 Colombo Road, Galle",[],google,119.94556865496196,119.19671776126002,0,0.0,0
Sholay Villa Galle,6.038945499999999,80.22670699999999,attraction,tourist_attraction,3.9,119,"143 143/12 Abdul Wahab Mawatha, 143/12 Talapitiya Road, Galle",[],google,118.73603976181424,117.8664769462769,0,0.01,0
Ramboda Falls,7.054569199999999,80.705331,attraction,tourist_attraction,4.6,2808,"3P34+R4G, A5, Ramboda",[],google,12.601976927328339,12.601483209933892,0,0.06613683870877232,0
Hotel Alta Vista,6.873472899999999,81.0480231,attraction,tourist_attraction,4.0,147,"Wellawaya-Ella-Kumbalwela Highway, Ella",[],google,32.25972404306274,7.65739155076478,0,0.09940659340659341,0
Sigiriya,7.9542748,80.7592244,attraction,tourist_attraction,5.0,1,"Sigiriya Road, Sigiriya",[],google,110.48747727262581,110.4873150717207,0,0.0,0
කැඩපත් පවුර (Mirror Wall),7.9569746,80.7593102,attraction,tourist_attraction,4.3,6,"XQ45+PVF, Sigiriya",[],google,110.7875721853446,110.78741005755184,0,0.0,0
Ritigala Strict Natural Reserve,8.1166667,80.64999999999999,attraction,tourist_attraction,4.7,823,"4J8X+MX9, Palugaswewa",[],google,129.2099953520721,129.20977429604986,0,0.0,0
Pitawala Patana Trail,7.546518000000001,80.746873,attraction,tourist_attraction,4.7,39,"33 Km post, Illukkumbura,, Matale",[],google,65.18828553747593,65.18810528716287,0,0.08,0
Wasgamuwa National Park,7.7532419,80.92077370000001,attraction,tourist_attraction,4.5,979,"QW3C+78R, Nuwaragala",[],google,89.69726344635308,89.69723166729003,0,0.10888755039588091,0
Nā Uyana Forest Monastery | නා උයන ආරණ්‍ය සේනාසනය,7.7387408,80.51590670000002,attraction,tourist_attraction,4.8,470,"PGQ8+F9V, Polgahangoda",[],google,90.91648454782813,90.91613641457218,0,0.06899159663865546,0
Dambulla Royal Cave Temple and Golden Temple,7.854914099999999,80.6505699,attraction,tourist_attraction,4.5,13330,"Kandy - Jaffna Highway, Dambulla",[],google,100.29158233098492,100.29134306808977,0,0.01,0
Hotel Sannasa,7.8589127,80.6620717,attraction,tourist_attraction,4.0,353,"1st Post, Kandalama Road, Dambulla",[],google,100.57544914579044,100.57521807487359,0,0.01,0
Hurulu Eco Park - Wild Elephant Safari,8.0584446,80.770258,attraction,tourist_attraction,4.3,576,"trincomalee road, Habarana",[],google,122.06511257489862,122.06495746871832,0,0.0,0
Kashyapa Tours And Travel Sri Lanka,7.947860300000002,80.7414407,attraction,tourist_attraction,5.0,2,"No 207, Sigiriya",[],google,109.8115907497113,109.81141694652,0,0.0,0
Menikdena Archeological Reserve and Arboretum | මැණික්දෙන පුරාවිද්‍යා රක්ෂිතය සහ වෘක්ෂෝද්‍යානය,7.766630500000001,80.6403223,attraction,tourist_attraction,4.5,83,"QJ8R+M44, Dambulla",[],google,90.73838825757025,90.7381325233593,0,0.1288875503958809,0
Midigama Right,5.964814599999999,80.38364229999999,attraction,tourist_attraction,4.6,126,Asian Highway 43,[],google,118.65122671243375,116.16582208531986,0,0.01,0
Parewi Duwa Temple,5.941381399999999,80.54925539999999,attraction,tourist_attraction,4.3,917,"Golden Island Pathway, Matara",[],google,115.92013679243648,109.78202733637531,0,0.0,0
Dilana Cab Service & Tours,5.974342,80.42475379999999,attraction,tourist_attraction,5.0,368,"46 Hetti Weediya Weligama 81700 Hetti Weediya, Weligama",[],google,116.09531674949362,113.19741924740963,0,0.0,0
Weherahena Poorwarama Rajamaha Viharaya - Matara | වෙහෙරහේන පුර්වාරාම රජමහා විහාරය - මාතර,5.953037999999999,80.57528599999999,attraction,tourist_attraction,4.6,1652,"Weherahena Road, Matara",[],google,114.07783830937994,107.35948667970817,0,0.0,0
The Shrine of Our Lady of Matara,5.9432239,80.5519762,attraction,tourist_attraction,4.8,1075,"WHV2+7QQ, Matara",[],google,115.65703040069579,109.46485389660435,0,0.0,0
Damro Tea Factory - Labookellie Tea Lounge,7.0240568,80.7193898,attraction,tourist_attraction,4.3,6573,"2PF9+PHR, A5, Labugolla",[],google,8.943594207646107,8.943070531724944,0,0.1454393858725912,0
Happy Leoni Hotel,8.357708700000002,80.4239316,attraction,tourist_attraction,3.3,284,"Happy Leoni Hote Mihintale, Road, Anuradhapura",[],google,159.93613026975817,159.93582433495925,0,0.0,0
Wilpattu National Park,8.4581819,80.0518306,attraction,tourist_attraction,4.5,2983,Sri Lanka,[],google,184.32738985244288,184.3269703520131,0,0.0,0
Tantirimale Rajamaha Viharaya - තන්තිරිමලේ රජමහා විහාරය,8.5736017,80.2558288,attraction,tourist_attraction,4.7,1298,"H7F4+C8W, Thanthirimale Road, Thanthirimale",[],google,188.05792321125503,188.05757919408398,0,0.0,0
Pankuliya Ashokaramaya (අශෝකාරාමය),8.3854823,80.4102217,attraction,tourist_attraction,4.7,73,"9CP6+53X, Ashokaramaya Road, Anuradhapura",[],google,163.2965484516336,163.2962398623598,0,0.0,0
Ruwanweli Maha Seya,8.349970499999998,80.39615990000001,attraction,tourist_attraction,4.9,16490,"Ruwanweliseya Temple, Abhayawewa Road, Anuradhapura",[],google,159.86035405381355,159.86003635896455,0,0.0,0
Manawila Wildlife Department Bungalow,8.4859286,79.9897653,attraction,tourist_attraction,4.4,16,Sri Lanka,[],google,190.1082383545119,190.10780570815513,0,0.0,0
Samadhi Buddha Statue,8.3698774,80.3981853,attraction,tourist_attraction,4.8,1907,"999X+X73, Anuradhapura",[],google,161.94366201234033,161.94334718082618,0,0.0,0
Hotel Moonstone,8.331613599999999,80.3668866,attraction,tourist_attraction,4.1,240,"Thisawewa Road Pandulagama, Anuradhapura",[],google,158.75969988407735,158.75936876576523,0,0.0,0
Gamodh Citadel Resort - Anuradhapura,8.3640036,80.3646787,attraction,tourist_attraction,4.3,390,"Thanthirimale Road, Lolugaswewa",[],google,162.2872681348972,162.2869397980578,0,0.0,0
Kithul Kanda Mountain Resort,6.858332099999999,80.0973705,attraction,tourist_attraction,4.3,2304,"No. 07, Meepe, Ingiriya Road, Padukka",[],google,75.04031187518932,75.03969162686114,0,0.009406593406593406,0
Grand Oriental Hotel,6.9373415,79.8449335,attraction,tourist_attraction,4.0,3996,"2 York Street, Colombo",[],google,102.06252260846136,102.0618753956342,0,0.05,0
Haus Chandra Beach Hotel,6.842429699999999,79.86343819999999,attraction,tourist_attraction,4.1,204,"37 Beach Road, Dehiwala-Mount Lavinia",[],google,100.85793312548601,100.85730753780781,0,0.01863073133762789,0
Malwathu Oya Reservoir Dam,8.3323056,80.39866289999999,attraction,tourist_attraction,4.0,6,"89JX+WF, Anuradhapura",[],google,157.89165287085865,157.8913342803383,0,0.0,0
Dahayyagama junction,8.3287301,80.4075281,attraction,tourist_attraction,4.3,4,"8CH5+F2R, Maithripala Senanayake Mawatha, Anuradhapura",[],google,157.25716560097572,157.2568501574285,0,0.0,0
Malwathu Oya Boat Safari,8.327608999999999,80.397103,attraction,tourist_attraction,5.0,1,"89GX+H46, Anuradhapura",[],google,157.43201018697266,157.4316904706466,0,0.0,0
Kada Panaha Wewa,8.3209999,80.41366599999999,attraction,tourist_attraction,5.0,3,"8CC7+9FV, Anuradhapura",[],google,156.25490075140377,156.2545869530811,0,0.0,0
Musthak recidency,8.323658499999997,80.407516,attraction,tourist_attraction,0.0,0,"8CF4+CX7, Anuradhapura",[],google,156.7121193730455,156.7118033850227,0,0.0,0
Bicycle repair center Anudarapura,8.3155456,80.4143496,attraction,tourist_attraction,0.0,0,"8C87+7JX, Anuradhapura",[],google,155.64898591759706,155.64867181691835,0,0.0,0
Kunbichchan Kulama Wewa - කුම්බිච්චන්කුලම වැව,8.3186338,80.4030367,attraction,tourist_attraction,4.8,4,"Kumbichchan Kulama Tank, Anuradhapura",[],google,156.29866234461696,156.29834402119752,0,0.0,0
Nuwara wewa viewpoint,8.311351799999997,80.4036508,attraction,tourist_attraction,4.7,3,"K8CJ9+4X6, අනුරාධපුර පෞරාණික නගරය",[],google,155.49908726487624,155.49876839535614,0,0.0,0
Orr's Hill Army Museum,8.5695593,81.21330689999999,attraction,museum,4.5,708,"H697+R8F, Trincomalee",[],google,185.4658700557959,185.46589131913652,0,0.0,0
Rawana Abyss,8.582018399999999,81.2453797,attraction,tourist_attraction,4.5,156,"H6JW+R52, Trincomalee",[],google,187.7586177723947,187.75864985164736,0,0.0,0
Guruge Mayan Water Park,7.068894299999999,79.9022359,attraction,tourist_attraction,3.9,512,"3WC3+X77, 266 Road Batagama North, ජා-ඇළ",[],google,96.44456049015933,96.44389487399067,0,0.05592136262206928,0
Royal Park Land,7.0763357,79.89582899999999,attraction,landmark,4.1,66,"48 Mount Kalvary Road, Ja-Ela",[],google,97.25134212386425,97.25067597900197,0,0.028000258482986908,0
Silk Route Trails,7.075385,79.8923396,attraction,tourist_attraction,4.0,2,"Suite 02, No.13, Mezzanine Level, Realty Plaza, Ja-Ela",[],google,97.61930133253838,97.61863529607089,0,0.019369527145359017,0
Miraj Tours & Rent a Car,7.264808999999999,79.89494599999999,attraction,car_rental,4.8,52,"01/01A ""Franklyn"" St.Theresa Rd, Katana North,, Kochchikade",[],google,102.23018299774456,102.22951701219206,0,0.0,0
AxioTravel,7.1530194,79.87205999999999,attraction,tourist_attraction,4.6,5,"124 Negombo Road, Katunayake",[],google,101.29572163934088,101.29505222251815,0,0.0,0
Sri Lanka Travel Partner Travel Agent,7.261181999999998,79.866742,attraction,travel_agency,4.6,26,"The Finanes Waththa, No. 33/2C Thoppuwa, Negombo",[],google,105.04342788933668,105.04276103756095,0,0.0,0
tuktukrental.com (Tuktuk Rental Sri Lanka - Official),7.167506400000001,79.8671325,attraction,travel_agency,4.8,1279,"No 11/A Negombo Road, Katunayake",[],google,102.1762294384331,102.17555988938898,0,0.0,0
St. Anne's Church (Kurana),7.191215400000001,79.86046,attraction,tourist_attraction,4.6,215,"51 Saint Anne's Road, Negombo",[],google,103.51240665099203,103.51173717893815,0,0.02,0
T-TEC Tours,7.205241000000002,79.840689,attraction,tourist_attraction,3.0,3,"35, 36 Greens Road, Negombo",[],google,106.01528332315932,106.0146139811642,0,0.009369527145359019,0
YAD POINT,8.571040499999999,81.2102944,attraction,tourist_attraction,0.0,0,"H6C6+C47, Trincomalee",[],google,185.53753515863784,185.53755511248033,0,0.0,0
Mud Cove,8.5754519,81.2033569,attraction,tourist_attraction,4.5,4,"Cod bay, Trincomalee",[],google,185.81275008225458,185.8127669206667,0,0.0,0
Seaview infront of School,8.5754232,81.2254731,attraction,tourist_attraction,5.0,1,"infront of Sinhala central college, Trincomalee",[],google,186.45161796130202,186.45164323696957,0,0.0,0
Lake side cabana,8.5742414,81.2205383,attraction,tourist_attraction,5.0,1,"6th mail post, 6th Lane, Trincomalee",[],google,186.17918600013806,186.17920952552666,0,0.0,0
City Centre,8.5813295,81.2273499,attraction,tourist_attraction,2.0,1,"345 Main Street, Trincomalee",[],google,187.13969722049927,187.1397225723571,0,0.0,0
திருகோணமலை நகர கடற்கரை | ත්‍රිකුණාමලය නගර වෙරළ තීරය | Trincomalee Town Beach,8.5973769,81.2232059,attraction,tourist_attraction,4.4,203,Trincomalee,[],google,188.73686055383854,188.73688264058993,0,0.0,0
Shymi Pigeon Island & whale Watching,8.5918026,81.22513070000001,attraction,tourist_attraction,2.5,2,"Thirukkadaloor, Krishnapuri, Trincomalee",[],google,188.19581470818565,188.195838105748,0,0.0,0
Green Bay Beach,8.587363800000002,81.2152121,attraction,tourist_attraction,5.0,2,"Easter Naval Command Headquarters, Trincomalee",[],google,187.43089036482735,187.4309104811703,0,0.0,0
Aqua Creed,8.680864999999999,81.20116,attraction,tourist_attraction,4.9,15,"8.680865, 81.201160",[],google,197.10235171574388,197.10235749293668,0,0.0,0
Velgam Vehera Buddhist Temple | වෙල්ගම් වෙහෙර,8.6471866,81.1696845,attraction,tourist_attraction,4.6,311,Vilgam Vihara Road,[],google,192.64748489165987,192.64748214655123,0,0.0,0
Commonwealth WAR Cemetery,8.615208299999999,81.2134641,attraction,museum,4.6,38,"J687+39P, Nilaveli Road, Trincomalee",[],google,190.3705239658584,190.37054057081886,0,0.0,0
Ceylon Wonders,7.164370799999999,80.57588129999999,attraction,tourist_attraction,4.0,7,"I52/1/1 Illawatura Road, Gampola",[],google,31.12073552155422,31.120175683036205,0,0.02477731747802414,0
Kirindi Ella Waterfall,6.6419593,80.5639401,attraction,tourist_attraction,4.7,381,"Kuttapitiya, Pelmadulla",[],google,42.07346385614353,42.01758556848188,0,0.0,0
Batadombalena,6.776506499999999,80.3959493,attraction,tourist_attraction,4.5,240,"Q9GW+J94, Kuruwita",[],google,46.0241552806521,46.023641199477936,0,0.009406593406593406,0
Laxapana Falls,6.899600700000001,80.50104089999999,attraction,tourist_attraction,4.7,1127,"Laxapana Falls, Laxapana",[],google,30.37983454845378,30.37923454430789,0,0.015407790332665124,0
Hotel Casamara Kandy,7.2935149,80.6372217,attraction,tourist_attraction,4.1,655,"12 East L Senanayake Veediya, Kandy",[],google,39.774337250574476,39.7739538916694,0,0.17170219261812633,0
Isha Water Park and rooms,8.6049322,81.21769619999999,attraction,tourist_attraction,3.5,142,Trincomalee,[],google,189.38772724037582,189.38774647477172,0,0.01,0
Kottagala Mohideen Jumma Masjid,6.924072999999999,80.6060729,attraction,mosque,4.0,24,"WJF4+JCG, Kotagala",[],google,18.47084410561243,18.47024317373795,0,0.025407790332665124,0
Sathmahal Prasadaya (සත්මහල් ප්‍රාසාදය) - 51,7.947952399999999,81.0018178,attraction,tourist_attraction,4.8,97,"W2X2+5PP, Polonnaruwa",[],google,112.73255615330605,112.73255248118261,0,0.0,0
1st canel jumping pot,7.941499899999999,81.0003019,attraction,tourist_attraction,3.0,3,"W2V5+5PM, Polonnaruwa",[],google,111.99590441769715,111.99590075031804,0,0.0,0
Risky Swamp,7.951202899999999,81.01200949999999,attraction,tourist_attraction,3.0,1,"W2V5+5PM, Polonnaruwa",[],google,113.34455421576509,113.34455651397273,0,0.0,0
Bimbuthuraawa,7.940312499999999,81.0188125,attraction,tourist_attraction,4.4,5,"W2R9+4G, Polonnaruwa",[],google,112.34958107342382,112.34958941615362,0,0.0,0
Maduru Oya National Park,7.647635600000001,81.1868215,attraction,tourist_attraction,4.4,724,Manampitiya-Aralaganwila-Maduru Oya Rd,[],google,89.19230791398094,86.48625227381068,0,0.10888755039588091,0
Somawathiya National Park,8.169255900000001,81.20781640000001,attraction,tourist_attraction,4.5,692,"5695+P44, Gangapahalavila",[],google,142.81512927538606,142.8152028696211,0,0.0,0
Ibankatuwa Tanke,7.869492800000001,80.6356519,attraction,tourist_attraction,0.0,0,"VJ9P+Q7R, Ibbankatuwa Tank Road, Dambulla",[],google,102.12333927102057,102.12309135206219,0,0.0,0
Salu Apullana Wewa Lake,7.8663483,80.6428114,attraction,tourist_attraction,0.0,0,"VJ8V+PCJ, Dambulla",[],google,101.6660654080291,101.6658219606468,0,0.01,0
Dambulla,7.874217000000001,80.6511287,attraction,tourist_attraction,0.0,0,"VMF2+MFJ, Dambulla",[],google,102.41209357371842,102.41185639742088,0,0.01,0
Yapahuwa Rock Fortress,7.8169688,80.3110686,attraction,tourist_attraction,4.7,1880,"R886+QCP, Maho",[],google,107.79107637479578,107.79063385072199,0,0.0,0
The Elephant Freedom Project,7.2671311,80.3806184,attraction,tourist_attraction,4.6,910,"Karandupona-Rambukkna Road, Hiriwadunna",[],google,54.77527336449794,54.774666772580595,0,0.02439938697132059,0
Udawatta Kele Sanctuary,7.2988782,80.6424033,attraction,zoo,4.4,3106,"Forest Department Office, Sangamitta Mawatha, Kandy",[],google,40.1267657713409,40.12639274418379,0,0.17307146128049844,0
Kandyan Cultural Centre,7.2920019,80.6423871,attraction,tourist_attraction,4.5,1084,"72 Sangaraja Mawatha, Kandy",[],google,39.411782224517985,39.411405417226234,0,0.15307146128049845,0
Corbett's Gap අට්ටාලවෙට්ටුව,7.372764600000002,80.84087850000002,attraction,tourist_attraction,4.6,286,Hunnasgiriya - Meemure Road,[],google,46.49642229987562,46.496379451071306,0,0.09899159663865546,0
Pinnawala Elephant Orphanage,7.3008545,80.38885499999999,attraction,zoo,3.9,3080,Rambukkana,[],google,56.50388641838255,56.50329856141161,0,0.06666073830779713,0
Gem Museum,6.912143,79.852988,attraction,jewelry_store,4.0,215,"43 Ananda Coomaraswamy Mawatha, Colombo",[],google,101.28710924561798,101.28646706864612,0,0.06,0
Tea Breeze Cafe at Beira Lake,6.9164175,79.8527841,attraction,cafe,3.9,96,"B, 18 Perahera Mawatha, Colombo",[],google,101.284912581631,101.28426952127998,0,0.06,0
